city,cloudiness,lat,long,country,date,humidity,max_temp,wind_speed
cape town,1.0,-33.93,18.42,ZA,1586742367.0,87.0,55.0,3.36
mataura,99.0,-46.19,168.86,NZ,1586742462.0,89.0,44.01,11.01
port-gentil,75.0,-0.72,8.78,GA,1586742538.0,73.0,79.11,2.35
nikolskoye,75.0,59.7,30.79,RU,1586742489.0,75.0,42.8,8.95
arraial do cabo,98.0,-22.97,-42.03,BR,1586742750.0,65.0,73.49,6.24
vaini,20.0,-21.2,-175.2,TO,1586742750.0,61.0,82.4,6.93
shingu,75.0,33.73,135.98,JP,1586742750.0,81.0,48.2,18.34
ushuaia,90.0,-54.8,-68.3,AR,1586742466.0,81.0,42.8,10.29
hermanus,0.0,-34.42,19.23,ZA,1586742750.0,81.0,55.0,4.9
pisco,10.0,-13.7,-76.22,PE,1586742479.0,83.0,72.0,14.99
khatanga,99.0,71.97,102.5,RU,1586742751.0,96.0,15.22,10.31
upata,90.0,8.01,-62.4,VE,1586742751.0,78.0,71.01,5.61
nishihara,90.0,26.18,127.76,JP,1586742751.0,51.0,64.4,19.46
tomatlan,22.0,19.93,-105.25,MX,1586742751.0,52.0,70.45,8.57
maniitsoq,100.0,65.42,-52.9,GL,1586742751.0,96.0,32.22,25.84
sao joao da barra,90.0,-21.64,-41.05,BR,1586742751.0,75.0,71.35,7.36
punta arenas,75.0,-53.15,-70.92,CL,1586742583.0,76.0,50.0,27.51
ponta do sol,75.0,32.67,-17.1,PT,1586742462.0,72.0,62.6,11.41
sombrio,39.0,-29.11,-49.62,BR,1586742752.0,85.0,63.16,3.74
san cristobal,8.0,7.77,-72.22,VE,1586742752.0,56.0,68.5,2.26
severnyy,65.0,50.68,36.55,RU,1586742752.0,40.0,35.6,6.71
balikpapan,75.0,-1.27,116.83,ID,1586742752.0,83.0,84.2,3.36
nicoya,77.0,10.15,-85.45,CR,1586742752.0,85.0,73.0,11.01
paamiut,100.0,61.99,-49.67,GL,1586742752.0,96.0,32.45,23.64
kapaa,75.0,22.08,-159.32,US,1586742564.0,64.0,80.6,13.87
ribeira grande,13.0,38.52,-28.7,PT,1586742460.0,81.0,60.82,10.11
faanui,88.0,-16.48,-151.75,PF,1586742753.0,70.0,83.52,10.92
arzgir,0.0,45.37,44.22,RU,1586742753.0,73.0,35.87,9.86
tiksi,100.0,71.69,128.87,RU,1586742753.0,95.0,16.65,21.99
inta,67.0,66.03,60.17,RU,1586742753.0,95.0,20.7,7.23
morant bay,20.0,17.88,-76.41,JM,1586742753.0,66.0,84.2,21.92
albany,75.0,42.6,-73.97,US,1586742608.0,38.0,59.0,6.93
chokurdakh,95.0,70.63,147.92,RU,1586742753.0,92.0,2.91,7.96
tiznit,88.0,29.58,-9.5,MA,1586742753.0,74.0,54.59,10.2
carnarvon,40.0,-24.87,113.63,AU,1586742754.0,78.0,80.6,18.34
tema,40.0,5.67,-0.02,GH,1586742689.0,79.0,84.2,8.05
butaritari,99.0,3.07,172.79,KI,1586742465.0,79.0,83.28,14.81
hithadhoo,12.0,-0.6,73.08,MV,1586742754.0,69.0,84.63,7.61
hasaki,75.0,35.73,140.83,JP,1586742475.0,93.0,55.4,19.46
saint-philippe,100.0,-21.36,55.77,RE,1586742754.0,78.0,75.2,6.93
kirovskiy,0.0,45.09,133.51,RU,1586742754.0,33.0,58.48,3.49
santa isabel do rio negro,14.0,-0.41,-65.02,BR,1586742755.0,96.0,74.01,1.79
tommot,98.0,58.96,126.29,RU,1586742755.0,71.0,36.34,9.35
sorong,26.0,-0.88,131.25,ID,1586742534.0,64.0,88.32,2.93
muros,75.0,42.78,-9.06,ES,1586742755.0,100.0,53.01,9.17
vangaindrano,0.0,-23.35,47.6,MG,1586742755.0,91.0,70.61,1.32
tasiilaq,100.0,65.61,-37.64,GL,1586742755.0,97.0,32.0,40.26
bluff,96.0,-46.6,168.33,NZ,1586742463.0,89.0,44.01,11.01
eldorado,0.0,-23.79,-54.28,BR,1586742756.0,81.0,66.67,6.4
kristiinankaupunki,75.0,62.27,21.38,FI,1586742756.0,84.0,34.0,20.74
kalamazoo,90.0,42.25,-85.55,US,1586742511.0,76.0,57.2,6.93
hobyo,48.0,5.35,48.53,SO,1586742756.0,78.0,82.71,8.88
mosquera,40.0,4.71,-74.23,CO,1586742756.0,59.0,60.8,8.05
husavik,100.0,66.04,-17.34,IS,1586742756.0,69.0,39.2,41.38
alim,86.0,9.56,122.49,PH,1586742757.0,64.0,83.64,7.47
bethel,1.0,41.37,-73.41,US,1586742757.0,54.0,57.99,10.29
busselton,95.0,-33.65,115.33,AU,1586742757.0,47.0,73.99,6.35
new norfolk,75.0,-42.78,147.06,AU,1586742757.0,58.0,63.0,4.7
marsala,14.0,37.8,12.44,IT,1586742757.0,93.0,61.0,11.41
tessalit,47.0,20.2,1.01,ML,1586742757.0,16.0,83.53,7.2
castro,22.0,-24.79,-50.01,BR,1586742721.0,72.0,54.93,5.23
narsaq,98.0,60.92,-46.05,GL,1586742481.0,69.0,37.4,5.82
tuktoyaktuk,20.0,69.45,-133.04,CA,1586742758.0,79.0,21.2,6.93
touros,75.0,-5.2,-35.46,BR,1586742758.0,94.0,77.0,4.7
antalaha,75.0,-14.9,50.28,MG,1586742758.0,84.0,77.34,10.54
kontagora,0.0,10.4,5.47,NG,1586742758.0,25.0,81.52,2.93
atambua,47.0,-9.11,124.89,ID,1586742501.0,70.0,82.2,0.72
georgetown,20.0,5.41,100.34,MY,1586742758.0,83.0,87.8,1.74
barrow,90.0,71.29,-156.79,US,1586742758.0,86.0,28.4,8.05
san carlos de bariloche,0.0,-41.15,-71.31,AR,1586742758.0,57.0,48.2,12.75
leningradskiy,88.0,69.38,178.42,RU,1586742758.0,90.0,22.12,0.92
lompoc,90.0,34.64,-120.46,US,1586742759.0,76.0,59.0,8.05
necochea,100.0,-38.55,-58.74,AR,1586742759.0,98.0,57.99,4.0
rikitea,61.0,-23.12,-134.97,PF,1586742464.0,77.0,77.7,18.05
provideniya,90.0,64.38,-173.3,RU,1586742759.0,96.0,32.0,8.95
yellowknife,20.0,62.46,-114.35,CA,1586742650.0,47.0,17.01,8.05
yasnyy,29.0,51.03,59.87,RU,1586742760.0,67.0,37.58,17.36
neuquen,0.0,-38.95,-68.06,AR,1586742673.0,76.0,51.8,2.42
puerto ayora,90.0,-0.74,-90.35,EC,1586742760.0,93.0,75.99,1.99
hualmay,76.0,-11.1,-77.61,PE,1586742455.0,79.0,71.74,8.23
sabang,82.0,5.89,95.32,ID,1586742760.0,69.0,84.76,4.65
tumpat,20.0,6.2,102.17,MY,1586742760.0,79.0,86.0,3.36
te anau,74.0,-45.42,167.72,NZ,1586742760.0,67.0,42.98,10.87
cabo san lucas,5.0,22.89,-109.91,MX,1586742714.0,56.0,71.6,16.11
lorengau,33.0,-2.02,147.27,PG,1586742761.0,71.0,84.97,2.28
lavrentiya,100.0,65.58,-171.0,RU,1586742761.0,98.0,30.47,4.0
paso de los toros,98.0,-32.82,-56.52,UY,1586742761.0,58.0,59.81,8.75
vytegra,100.0,61.01,36.45,RU,1586742761.0,92.0,36.75,14.63
mar del plata,90.0,-38.0,-57.56,AR,1586742749.0,93.0,60.8,9.17
coquimbo,90.0,-29.95,-71.34,CL,1586742761.0,82.0,60.8,4.7
zhangjiakou,5.0,40.81,114.88,CN,1586742762.0,17.0,61.84,2.73
airai,65.0,-8.93,125.41,TL,1586742762.0,67.0,70.47,1.7
jamestown,40.0,42.1,-79.24,US,1586742762.0,41.0,59.0,9.17
oktyabrskoye,64.0,43.06,44.74,RU,1586742762.0,68.0,32.11,4.65
comodoro rivadavia,0.0,-45.87,-67.5,AR,1586742515.0,50.0,57.2,11.41
oussouye,75.0,12.48,-16.55,SN,1586742762.0,94.0,73.4,6.93
venice,1.0,27.1,-82.45,US,1586742596.0,83.0,84.2,17.22
laguna,1.0,38.42,-121.42,US,1586742539.0,60.0,73.4,10.29
nhulunbuy,75.0,-12.23,136.77,AU,1586742763.0,66.0,87.8,11.41
banatsko novo selo,68.0,44.99,20.78,RS,1586742763.0,70.0,60.8,1.12
hobart,75.0,-42.88,147.33,AU,1586742763.0,58.0,63.0,4.7
barpeta,40.0,26.32,91.0,IN,1586742763.0,78.0,73.4,7.14
west bay,0.0,19.37,-81.42,KY,1586742763.0,78.0,82.99,1.01
bilibino,15.0,68.05,166.44,RU,1586742763.0,87.0,16.9,2.77
atuona,61.0,-9.8,-139.03,PF,1586742474.0,68.0,82.42,1.1
marawi,4.0,8.0,124.29,PH,1586742764.0,38.0,84.83,4.92
steinbach,22.0,50.17,8.57,DE,1586742764.0,81.0,53.01,4.7
codrington,0.0,-38.27,141.97,AU,1586742764.0,53.0,61.07,4.85
arkhara,0.0,49.42,130.08,RU,1586742764.0,30.0,61.21,7.52
bukoba,97.0,-1.33,31.81,TZ,1586742764.0,59.0,69.91,7.78
jamame,100.0,0.07,42.75,SO,1586742764.0,82.0,81.7,7.92
esperance,3.0,-33.87,121.9,AU,1586742259.0,68.0,71.6,9.17
huarmey,99.0,-10.07,-78.15,PE,1586742765.0,77.0,73.42,7.05
kruisfontein,0.0,-34.0,24.73,ZA,1586742194.0,79.0,52.11,3.36
nanortalik,96.0,60.14,-45.24,GL,1586742765.0,97.0,32.36,10.11
deputatskiy,100.0,69.3,139.9,RU,1586742765.0,88.0,13.66,4.85
cherskiy,96.0,68.75,161.3,RU,1586742765.0,95.0,14.45,8.79
nome,90.0,64.5,-165.41,US,1586742765.0,86.0,33.8,9.17
galesong,20.0,-5.32,119.37,ID,1586742765.0,88.0,80.6,5.82
tezu,83.0,27.92,96.17,IN,1586742766.0,22.0,88.0,2.82
saint-pierre,100.0,-21.34,55.48,RE,1586742766.0,78.0,75.2,6.93
tiarei,95.0,-17.53,-149.33,PF,1586742766.0,66.0,87.8,8.05
lebu,0.0,-37.62,-73.65,CL,1586742478.0,77.0,47.68,9.15
ciro marina,6.0,39.37,17.13,IT,1586742767.0,66.0,58.46,4.5
shimoda,75.0,34.67,138.95,JP,1586742505.0,93.0,52.0,28.86
caravelas,39.0,-17.71,-39.25,BR,1586742767.0,87.0,76.84,15.9
goure,20.0,13.98,10.27,NE,1586742767.0,17.0,74.17,8.21
aksu,22.0,41.12,80.26,CN,1586742767.0,14.0,68.68,1.59
dudinka,100.0,69.41,86.18,RU,1586742767.0,62.0,21.2,4.47
ancud,75.0,-41.87,-73.82,CL,1586742194.0,87.0,48.2,2.24
copiapo,75.0,-27.37,-70.33,CL,1586742768.0,87.0,59.0,9.17
vostok,0.0,46.49,135.88,RU,1586742482.0,31.0,52.52,4.97
marsh harbour,23.0,26.54,-77.06,BS,1586742768.0,81.0,76.21,21.85
bubaque,44.0,11.28,-15.83,GW,1586742768.0,74.0,78.55,12.5
taicheng,51.0,38.73,113.23,CN,1586742768.0,18.0,58.86,4.14
gunnaur,3.0,28.25,78.43,IN,1586742768.0,19.0,91.09,8.01
nouadhibou,0.0,20.93,-17.03,MR,1586742769.0,68.0,68.0,20.8
grand gaube,40.0,-20.01,57.66,MU,1586742259.0,83.0,77.0,12.75
zaragoza,100.0,41.66,-0.88,ES,1586742769.0,54.0,55.0,8.05
pampa,1.0,35.54,-100.96,US,1586742769.0,55.0,39.2,19.46
dikson,100.0,73.51,80.55,RU,1586742769.0,96.0,15.03,14.83
aklavik,75.0,68.22,-135.01,CA,1586742769.0,50.0,33.8,5.82
vila franca do campo,75.0,37.72,-25.43,PT,1586742769.0,72.0,60.8,10.29
viedma,8.0,-40.81,-63.0,AR,1586742769.0,73.0,52.72,7.14
petropavlovsk-kamchatskiy,40.0,53.05,158.65,RU,1586742770.0,48.0,39.2,4.47
maturin,34.0,9.75,-63.18,VE,1586742770.0,78.0,74.34,5.73
da nang,75.0,16.07,108.22,VN,1586742770.0,94.0,71.6,5.82
ahipara,16.0,-35.17,173.17,NZ,1586742770.0,66.0,66.22,20.45
wamba,84.0,8.93,8.6,NG,1586742770.0,28.0,80.28,3.74
mahebourg,40.0,-20.41,57.7,MU,1586742194.0,83.0,77.0,12.75
lodwar,90.0,3.12,35.6,KE,1586742770.0,49.0,83.86,9.19
hilo,90.0,19.73,-155.09,US,1586742550.0,69.0,78.8,11.41
amboasary,0.0,-25.03,46.38,MG,1586742771.0,83.0,69.76,3.44
norman wells,75.0,65.28,-126.83,CA,1586742771.0,35.0,41.0,3.36
srebrenica,57.0,44.11,19.3,BA,1586742771.0,43.0,50.0,4.7
kondopoga,100.0,62.21,34.26,RU,1586742771.0,86.0,37.4,6.71
bowen,40.0,-20.02,148.23,AU,1586742771.0,66.0,88.0,14.99
saint-georges,20.0,12.06,-61.75,GD,1586742772.0,78.0,78.8,17.49
la ronge,75.0,55.1,-105.28,CA,1586742193.0,56.0,15.8,10.29
belyy yar,0.0,53.6,91.39,RU,1586742772.0,59.0,37.4,3.76
kirakira,93.0,-10.45,161.92,SB,1586742772.0,67.0,86.27,6.38
guiren,0.0,33.67,118.19,CN,1586742772.0,31.0,62.47,4.92
ishigaki,8.0,24.34,124.16,JP,1586742772.0,43.0,69.8,17.22
verkhoshizhemye,50.0,58.01,49.1,RU,1586742773.0,94.0,24.71,10.38
englehart,99.0,47.82,-79.87,CA,1586742773.0,87.0,35.98,7.52
darhan,98.0,49.49,105.92,MN,1586742773.0,43.0,43.61,15.68
belmonte,90.0,-15.86,-38.88,BR,1586742773.0,88.0,75.2,3.36
meadow lake,90.0,34.8,-106.54,US,1586742773.0,37.0,62.01,26.4
mount gambier,0.0,-37.83,140.77,AU,1586742773.0,63.0,60.8,10.29
hoi an,75.0,15.88,108.33,VN,1586742744.0,94.0,71.6,5.82
ostrovnoy,100.0,68.05,39.51,RU,1586742773.0,92.0,28.4,26.69
san andres,20.0,12.58,-81.7,CO,1586742774.0,78.0,82.4,11.41
upernavik,100.0,72.79,-56.15,GL,1586742774.0,97.0,32.54,14.88
cobija,99.0,-11.03,-68.77,BO,1586742774.0,90.0,73.04,2.98
portland,20.0,45.52,-122.68,US,1586742548.0,17.0,64.4,13.87
moerai,100.0,-22.43,-151.33,PF,1586742774.0,81.0,80.71,13.04
port alfred,12.0,-33.59,26.89,ZA,1586742774.0,82.0,57.0,4.0
bulalacao,21.0,12.33,121.34,PH,1586742774.0,64.0,85.28,6.42
thompson,75.0,55.74,-97.86,CA,1586742774.0,51.0,10.4,10.29
roswell,90.0,34.02,-84.36,US,1586742727.0,83.0,73.99,13.87
boali,99.0,4.8,18.13,CF,1586742775.0,100.0,75.2,3.38
east london,1.0,-33.02,27.91,ZA,1586742775.0,67.0,62.33,6.46
price,20.0,39.6,-110.81,US,1586742775.0,20.0,44.6,13.87
boa vista,15.0,2.82,-60.67,BR,1586742775.0,51.0,86.0,9.17
sabha,0.0,27.04,14.43,LY,1586742775.0,20.0,69.8,13.91
avarua,97.0,-21.21,-159.78,CK,1586742775.0,83.0,82.4,3.36
samarinda,94.0,-0.5,117.15,ID,1586742776.0,53.0,91.04,6.06
olafsvik,100.0,64.89,-23.71,IS,1586742542.0,89.0,41.67,31.79
huaihua,11.0,27.55,109.96,CN,1586742776.0,40.0,67.78,3.11
sorland,100.0,67.67,12.69,NO,1586742776.0,92.0,31.84,49.93
port elizabeth,23.0,-33.92,25.57,ZA,1586742776.0,81.0,53.6,8.05
sola,10.0,-13.88,167.55,VU,1586742776.0,79.0,81.99,14.32
merauke,31.0,-8.47,140.33,ID,1586742776.0,56.0,88.54,6.38
ariogala,97.0,55.27,23.47,LT,1586742776.0,42.0,48.2,9.17
port macquarie,22.0,-31.43,152.92,AU,1586742764.0,56.0,75.99,5.82
shelburne,90.0,44.08,-80.2,CA,1586742777.0,57.0,51.8,11.41
villazon,0.0,-22.09,-65.59,BO,1586742777.0,11.0,50.47,4.5
launceston,100.0,-41.45,147.17,AU,1586742777.0,67.0,60.01,2.24
anadyr,20.0,64.75,177.48,RU,1586742777.0,78.0,8.6,15.66
fairbanks,75.0,64.84,-147.72,US,1586742777.0,36.0,48.2,3.36
los llanos de aridane,75.0,28.66,-17.92,ES,1586742777.0,68.0,64.4,6.93
bredasdorp,1.0,-34.53,20.04,ZA,1586742778.0,67.0,57.2,86.35
lasa,100.0,46.62,10.7,IT,1586742778.0,74.0,48.0,2.24
amapa,100.0,1.0,-52.0,BR,1586742778.0,94.0,72.97,2.15
buala,75.0,-8.14,159.59,SB,1586742778.0,72.0,85.3,7.9
rio grande,0.0,-32.03,-52.1,BR,1586742778.0,87.0,62.01,13.31
tazovskiy,100.0,67.47,78.7,RU,1586742778.0,98.0,21.76,5.28
yumen,100.0,40.28,97.2,CN,1586742778.0,12.0,63.88,15.14
concordia,100.0,-31.39,-58.02,AR,1586742779.0,74.0,63.0,5.64
destin,90.0,30.39,-86.5,US,1586742723.0,88.0,78.01,12.75
padang,100.0,-0.95,100.35,ID,1586742491.0,77.0,78.91,4.0
oranjemund,30.0,-28.55,16.43,NA,1586742491.0,90.0,58.98,6.44
acajutla,50.0,13.59,-89.83,SV,1586742533.0,66.0,75.99,5.01
kahului,75.0,20.89,-156.47,US,1586742587.0,61.0,78.8,11.41
palauig,63.0,15.44,119.9,PH,1586742780.0,64.0,85.8,7.9
lawton,40.0,34.61,-98.39,US,1586742780.0,60.0,46.4,25.28
dingle,89.0,11.0,122.67,PH,1586742780.0,54.0,87.46,7.05
havelock,20.0,34.88,-76.9,US,1586742570.0,72.0,68.0,16.11
plover,90.0,44.46,-89.54,US,1586742780.0,100.0,34.0,8.05
luderitz,2.0,-26.65,15.16,NA,1586742780.0,100.0,60.8,3.36
clyde river,90.0,70.47,-68.59,CA,1586742456.0,92.0,10.4,26.4
rawah,0.0,34.48,41.91,IQ,1586742781.0,31.0,60.98,6.98
ravar,49.0,31.27,56.81,IR,1586742781.0,38.0,63.48,16.33
bemidji,75.0,47.47,-94.88,US,1586742781.0,49.0,28.4,16.11
abha,49.0,18.22,42.51,SA,1586742698.0,77.0,62.6,5.82
qaanaaq,100.0,77.48,-69.36,GL,1586742781.0,78.0,16.34,5.57
houma,90.0,29.6,-90.72,US,1586742513.0,88.0,79.0,13.87
hami,41.0,42.8,93.45,CN,1586742781.0,13.0,70.3,4.21
urengoy,100.0,65.97,78.37,RU,1586742589.0,98.0,34.02,5.17
santa helena,80.0,-2.23,-45.3,BR,1586742491.0,97.0,74.89,1.88
mount isa,0.0,-20.73,139.5,AU,1586742782.0,17.0,89.6,8.05
kurchum,100.0,48.57,83.65,KZ,1586742782.0,48.0,47.79,1.66
saint-joseph,100.0,-21.37,55.62,RE,1586742782.0,78.0,75.2,6.93
marsa matruh,0.0,31.35,27.25,EG,1586742783.0,61.0,58.93,0.18
souillac,40.0,-20.52,57.52,MU,1586742488.0,83.0,77.0,12.75
ust-barguzin,72.0,53.45,108.98,RU,1586742783.0,65.0,36.57,3.56
korla,44.0,41.76,86.15,CN,1586742783.0,93.0,55.0,0.94
caledonia,90.0,42.81,-87.92,US,1586742783.0,93.0,59.0,13.87
cockburn town,0.0,21.46,-71.14,TC,1586742783.0,83.0,79.27,20.89
alice springs,0.0,-23.7,133.88,AU,1586742783.0,30.0,80.6,8.05
turki,0.0,51.99,43.27,RU,1586742783.0,85.0,31.1,9.44
ugoofaaru,99.0,5.67,73.0,MV,1586742784.0,67.0,85.91,10.16
zomin,100.0,39.96,68.4,UZ,1586742784.0,77.0,51.62,6.02
constitucion,1.0,-35.33,-72.42,CL,1586742515.0,50.0,52.39,7.29
sioux lookout,75.0,50.1,-91.92,CA,1586742784.0,45.0,26.6,8.05
kavieng,99.0,-2.57,150.8,PG,1586742650.0,69.0,84.78,4.07
znamenskoye,71.0,57.13,73.83,RU,1586742784.0,81.0,38.01,7.76
kamina,100.0,-8.74,24.99,CD,1586742784.0,69.0,66.02,2.08
tautira,96.0,-17.73,-149.15,PF,1586742785.0,66.0,87.8,8.05
ormara,100.0,25.21,64.64,PK,1586742785.0,67.0,76.82,7.81
spornoye,80.0,50.84,37.29,RU,1586742785.0,40.0,35.6,6.71
daru,46.0,-9.08,143.21,PG,1586742785.0,68.0,85.24,8.81
pevek,46.0,69.7,170.31,RU,1586742785.0,92.0,12.52,9.42
batagay,90.0,67.63,134.63,RU,1586742785.0,91.0,28.29,7.92
srednekolymsk,24.0,67.45,153.68,RU,1586742785.0,92.0,17.78,6.17
baculin,2.0,7.45,126.58,PH,1586742785.0,57.0,85.64,6.87
wajir,93.0,1.75,40.06,KE,1586742786.0,72.0,79.3,10.65
kalabo,16.0,-14.97,22.68,ZM,1586742786.0,59.0,64.08,3.96
kanigoro,27.0,-8.13,112.22,ID,1586742786.0,58.0,84.85,2.26
jasrana,0.0,27.25,78.68,IN,1586742786.0,18.0,91.67,6.26
sao filipe,15.0,14.9,-24.5,CV,1586742487.0,78.0,73.06,6.29
kamenka,0.0,51.32,42.77,RU,1586742487.0,74.0,28.0,1.01
clarence town,96.0,-32.58,151.78,AU,1586742786.0,46.0,75.0,5.82
itoman,75.0,26.12,127.67,JP,1586742389.0,45.0,64.4,32.21
saint anthony,90.0,45.02,-93.22,US,1586742787.0,68.0,30.99,17.22
chervonohryhorivka,51.0,47.62,34.54,UA,1586742787.0,66.0,40.62,8.81
aquiraz,75.0,-3.9,-38.39,BR,1586742787.0,78.0,82.4,2.24
haines junction,73.0,60.75,-137.51,CA,1586742532.0,65.0,33.62,7.09
victoria,5.0,22.29,114.16,HK,1586742787.0,28.0,70.0,12.75
vardo,100.0,70.37,31.11,NO,1586742258.0,98.0,31.51,31.03
malakal,87.0,9.53,31.66,SS,1586742788.0,15.0,79.84,3.27
mount pleasant,90.0,32.79,-79.86,US,1586742788.0,88.0,73.99,12.75
inhambane,0.0,-23.86,35.38,MZ,1586742193.0,84.0,73.51,8.43
berdigestyakh,38.0,62.1,126.7,RU,1586742788.0,79.0,34.97,9.64
novo aripuana,59.0,-5.12,-60.38,BR,1586742788.0,91.0,75.63,0.18
teguldet,0.0,57.31,88.17,RU,1586742788.0,63.0,41.92,8.63
orbetello,91.0,42.44,11.22,IT,1586742788.0,87.0,54.0,1.12
helena,1.0,46.59,-112.04,US,1586742556.0,45.0,28.0,11.41
sangmelima,100.0,2.93,11.98,CM,1586742789.0,80.0,68.41,1.61
namatanai,65.0,-3.67,152.43,PG,1586742789.0,71.0,84.42,5.82
fortuna foothills,1.0,32.66,-114.41,US,1586742789.0,35.0,75.2,11.41
karasjok,100.0,69.47,25.51,NO,1586742789.0,86.0,28.4,29.97
kupino,100.0,54.37,77.3,RU,1586742789.0,72.0,40.06,8.77
carutapera,98.0,-1.2,-46.02,BR,1586742789.0,83.0,79.74,5.3
anori,88.0,-3.77,-61.64,BR,1586742790.0,95.0,74.95,1.45
kodiak,90.0,57.79,-152.41,US,1586742790.0,87.0,42.8,4.7
gizo,79.0,-8.1,156.84,SB,1586742790.0,69.0,86.14,3.15
velikodvorskiy,34.0,55.25,40.67,RU,1586742790.0,86.0,30.97,4.85
faya,35.0,18.39,42.45,SA,1586742790.0,77.0,62.6,5.82
ayagoz,100.0,47.97,80.44,KZ,1586742790.0,71.0,48.99,6.44
santa isabel,75.0,-23.32,-46.22,BR,1586742790.0,82.0,72.0,5.82
gagino,0.0,55.23,45.03,RU,1586742791.0,87.0,29.5,10.8
svetlyy,51.0,54.67,20.13,RU,1586742791.0,61.0,50.0,11.18
sembe,98.0,1.65,14.58,CG,1586742791.0,79.0,69.24,0.94
fare,62.0,-16.7,-151.02,PF,1586742791.0,70.0,84.07,9.91
saint george,1.0,37.1,-113.58,US,1586742791.0,17.0,66.99,11.41
ous,100.0,60.91,61.52,RU,1586742791.0,92.0,37.53,5.84
saskylakh,62.0,71.92,114.08,RU,1586742791.0,90.0,2.93,14.54
camacha,40.0,33.08,-16.33,PT,1586742792.0,77.0,62.6,18.34
las vegas,90.0,36.17,-115.14,US,1586742673.0,45.0,70.0,9.17
broome,90.0,42.25,-75.83,US,1586742792.0,47.0,57.0,10.29
mayumba,100.0,-3.43,10.66,GA,1586742792.0,85.0,78.76,4.76
valea nucarilor,0.0,45.03,28.93,RO,1586742792.0,26.0,48.2,10.29
ocampo,100.0,21.65,-101.5,MX,1586742792.0,11.0,64.76,10.22
saint-leu,100.0,-21.15,55.28,RE,1586742792.0,78.0,75.2,6.93
vendas novas,40.0,38.68,-8.46,PT,1586742793.0,82.0,57.2,8.05
henties bay,40.0,-22.12,14.28,NA,1586742793.0,74.0,66.47,6.29
gold coast,40.0,-28.0,153.43,AU,1586742718.0,50.0,80.01,4.7
ambon,20.0,-3.7,128.18,ID,1586742793.0,52.0,91.4,3.36
longyearbyen,75.0,78.22,15.64,SJ,1586742793.0,70.0,-2.2,2.24
cabangahan,20.0,9.08,122.95,PH,1586742793.0,66.0,86.0,4.7
liverpool,99.0,53.41,-2.98,GB,1586742692.0,70.0,46.4,20.8
axim,0.0,4.87,-2.24,GH,1586742794.0,86.0,80.02,5.95
grindavik,75.0,63.84,-22.43,IS,1586742794.0,93.0,42.8,27.51
soavinandriana,6.0,-19.17,46.73,MG,1586742794.0,63.0,55.0,4.56
kilindoni,100.0,-7.91,39.67,TZ,1586742794.0,88.0,78.87,12.8
bellevue,1.0,47.61,-122.2,US,1586742650.0,15.0,59.0,10.29
eydhafushi,100.0,5.1,73.07,MV,1586742794.0,68.0,85.78,9.44
port shepstone,92.0,-30.74,30.45,ZA,1586742795.0,75.0,68.56,7.07
porto de moz,84.0,-1.75,-52.24,BR,1586742795.0,97.0,73.54,1.07
semnan,20.0,35.57,53.4,IR,1586742613.0,37.0,50.22,7.58
novikovo,75.0,51.15,37.89,RU,1586742587.0,74.0,36.48,7.7
isiro,98.0,2.77,27.62,CD,1586742795.0,79.0,67.19,1.5
dalnegorsk,0.0,44.56,135.57,RU,1586742795.0,44.0,51.13,3.22
berlevag,100.0,70.86,29.09,NO,1586742500.0,97.0,31.24,28.86
camacupa,89.0,-12.02,17.48,AO,1586742795.0,65.0,59.86,3.87
topolobampo,5.0,25.6,-109.05,MX,1586742581.0,35.0,71.6,21.92
vermilion,90.0,40.17,-87.75,US,1586742796.0,87.0,57.2,5.7
jhang,40.0,33.67,72.7,PK,1586742796.0,77.0,70.0,2.17
coihaique,68.0,-45.58,-72.07,CL,1586742519.0,76.0,48.2,2.24
san patricio,20.0,19.22,-104.7,MX,1586742796.0,73.0,77.0,11.41
kholtoson,100.0,50.3,103.31,RU,1586742796.0,44.0,37.72,3.53
nemuro,75.0,43.32,145.57,JP,1586742796.0,64.0,39.2,6.93
great yarmouth,100.0,52.61,1.73,GB,1586742796.0,87.0,46.4,21.92
kirkenaer,35.0,60.46,12.06,NO,1586742796.0,40.0,35.6,14.99
pacific grove,90.0,36.62,-121.92,US,1586742797.0,87.0,59.0,6.93
lagoa,31.0,39.05,-27.98,PT,1586742797.0,81.0,60.66,11.03
cacapava do sul,0.0,-30.51,-53.49,BR,1586742797.0,89.0,52.23,4.07
grants pass,1.0,42.44,-123.33,US,1586742797.0,11.0,69.8,10.29
mandera,94.0,3.94,41.87,KE,1586742797.0,14.0,75.99,3.0
iranshahr,100.0,27.2,60.68,IR,1586742797.0,27.0,79.93,0.69
kabansk,40.0,52.05,106.65,RU,1586742797.0,60.0,39.2,2.24
zhanaozen,0.0,43.3,52.8,KZ,1586742456.0,57.0,41.85,9.93
nowa sol,87.0,51.8,15.72,PL,1586742798.0,58.0,55.0,1.01
beringovskiy,100.0,63.05,179.32,RU,1586742798.0,95.0,18.5,7.85
terrasini,5.0,38.15,13.08,IT,1586742798.0,93.0,61.0,11.41
catuday,85.0,16.29,119.81,PH,1586742522.0,70.0,80.8,9.53
ampanihy,0.0,-24.7,44.75,MG,1586742798.0,66.0,71.24,4.81
sao miguel do araguaia,43.0,-13.28,-50.16,BR,1586742798.0,84.0,73.06,1.77
lengshuijiang,6.0,27.69,111.43,CN,1586742798.0,31.0,68.97,2.15
naze,75.0,28.37,129.48,JP,1586742778.0,66.0,62.6,23.04
luwuk,33.0,-0.95,122.79,ID,1586742799.0,56.0,87.98,1.36
guerrero negro,0.0,27.98,-114.06,MX,1586742799.0,75.0,59.76,17.83
kaniama,100.0,-7.57,24.18,CD,1586742799.0,74.0,67.5,1.63
general pico,100.0,-35.66,-63.76,AR,1586742799.0,92.0,54.9,7.0
rodrigues alves,100.0,-7.74,-72.65,BR,1586742799.0,93.0,70.47,1.05
san rafael,100.0,-34.62,-68.33,AR,1586742799.0,65.0,58.44,8.52
cam ranh,40.0,11.92,109.16,VN,1586742799.0,74.0,86.0,8.05
kasongo,100.0,-4.45,26.67,CD,1586742800.0,84.0,68.97,3.6
mae hong son,20.0,19.3,97.97,TH,1586742800.0,53.0,77.0,3.58
samarai,13.0,-10.62,150.67,PG,1586742441.0,66.0,83.3,10.04
adrar,73.0,20.5,-10.07,MR,1586742800.0,19.0,75.94,13.31
mandal,1.0,25.45,74.57,IN,1586742800.0,17.0,90.41,7.92
san jeronimo,99.0,-11.95,-75.28,PE,1586742800.0,29.0,50.74,2.08
nantucket,75.0,41.28,-70.1,US,1586742800.0,87.0,51.8,17.22
havre-saint-pierre,90.0,50.23,-63.6,CA,1586742800.0,98.0,32.0,8.05
talcahuano,0.0,-36.72,-73.12,CL,1586742801.0,66.0,51.8,5.82
obo,96.0,5.4,26.49,CF,1586742801.0,78.0,69.57,3.31
cukai,40.0,4.25,103.42,MY,1586742801.0,89.0,84.2,2.24
cervo,97.0,43.67,-7.41,ES,1586742801.0,1.0,48.0,5.68
mitu,85.0,1.2,-70.17,CO,1586742801.0,91.0,72.46,1.61
robertsport,88.0,6.75,-11.37,LR,1586742801.0,84.0,80.53,5.23
evensk,72.0,61.95,159.23,RU,1586742801.0,87.0,18.16,1.43
talakan,0.0,50.32,130.37,RU,1586742802.0,33.0,58.84,6.8
cidreira,0.0,-30.18,-50.21,BR,1586742802.0,80.0,66.4,15.12
ilulissat,100.0,69.22,-51.1,GL,1586742802.0,80.0,35.6,4.7
orotukan,100.0,62.27,151.7,RU,1586742802.0,89.0,23.81,3.74
ventspils,100.0,57.39,21.56,LV,1586742802.0,87.0,44.6,14.99
vila velha,90.0,-20.33,-40.29,BR,1586742787.0,69.0,75.2,10.29
contamana,73.0,-7.33,-75.02,PE,1586742802.0,86.0,73.94,1.54
sanary-sur-mer,96.0,43.12,5.8,FR,1586742803.0,76.0,57.99,3.36
oriximina,100.0,-1.77,-55.87,BR,1586742803.0,92.0,76.05,1.43
barcelos,40.0,41.54,-8.62,PT,1586742519.0,93.0,54.0,6.93
staraya stanitsa,0.0,48.35,40.28,RU,1586742803.0,73.0,37.04,8.05
mareeba,75.0,-17.0,145.43,AU,1586742803.0,52.0,88.0,9.17
tuatapere,97.0,-46.13,167.68,NZ,1586742390.0,89.0,44.01,11.01
perth,20.0,-31.93,115.83,AU,1586742701.0,64.0,75.99,3.36
kavaratti,79.0,10.57,72.64,IN,1586742803.0,70.0,85.17,7.05
kudahuvadhoo,99.0,2.67,72.89,MV,1586742803.0,67.0,83.57,2.53
serenje,22.0,-13.23,30.24,ZM,1586742804.0,64.0,58.32,3.29
chuy,5.0,-33.7,-53.46,UY,1586742804.0,84.0,62.78,9.73
korsakov,0.0,46.63,142.78,RU,1586742804.0,48.0,44.6,6.71
iralaya,51.0,15.0,-83.23,HN,1586742804.0,85.0,79.36,11.77
puerto escondido,75.0,15.85,-97.07,MX,1586742804.0,83.0,78.8,2.24
turukhansk,100.0,65.82,87.98,RU,1586742804.0,95.0,34.81,12.8
kijang,100.0,35.24,129.21,KR,1586742804.0,52.0,46.4,11.41
lata,75.0,40.16,-8.33,PT,1586742805.0,87.0,57.2,10.29
villa carlos paz,75.0,-31.42,-64.5,AR,1586742639.0,82.0,68.0,1.12
oda,75.0,35.18,132.5,JP,1586742805.0,87.0,44.6,29.97
karangasem,20.0,-8.45,115.62,ID,1586742805.0,79.0,84.2,3.36
yaan,87.0,7.38,8.57,NG,1586742805.0,54.0,80.85,6.85
cairo,0.0,30.06,31.25,EG,1586742076.0,77.0,60.8,8.05
antigonish,20.0,45.62,-62.0,CA,1586742733.0,48.0,39.99,6.93
lac du bonnet,34.0,50.25,-96.06,CA,1586742805.0,56.0,27.0,3.0
ambovombe,0.0,-25.17,46.08,MG,1586742805.0,78.0,71.92,6.51
ibra,89.0,22.69,58.53,OM,1586742806.0,46.0,75.61,2.84
kautokeino,100.0,69.01,23.04,NO,1586742806.0,94.0,22.55,25.77
menongue,37.0,-14.66,17.69,AO,1586742806.0,63.0,60.73,1.57
palma di montechiaro,14.0,37.19,13.77,IT,1586742806.0,64.0,52.97,7.45
tsimlyansk,3.0,47.65,42.1,RU,1586742806.0,78.0,35.06,9.17
severo-kurilsk,95.0,50.68,156.12,RU,1586742806.0,93.0,30.72,10.02
santa cruz cabralia,90.0,-16.28,-39.02,BR,1586742806.0,88.0,75.2,3.36
manado,20.0,1.49,124.85,ID,1586742259.0,70.0,84.2,5.82
tsabong,3.0,-26.02,22.4,BW,1586742807.0,19.0,68.68,12.06
antropovo,0.0,58.4,43.01,RU,1586742807.0,88.0,28.06,4.14
bharatpur,1.0,27.22,77.48,IN,1586742807.0,20.0,92.08,5.61
ponta delgada,75.0,37.73,-25.67,PT,1586742807.0,72.0,60.8,10.29
irbeyskoye,0.0,55.64,95.45,RU,1586742807.0,46.0,46.87,16.06
isangel,75.0,-19.55,169.27,VU,1586742507.0,65.0,82.4,5.66
the pas,40.0,53.83,-101.25,CA,1586742807.0,66.0,14.0,10.29
ternate,3.0,0.8,127.4,ID,1586742808.0,64.0,85.39,5.26
dergachi,100.0,51.23,48.77,RU,1586742808.0,90.0,33.08,18.61
la paz,0.0,-16.5,-68.15,BO,1586742732.0,38.0,42.8,4.7
krasnoselkup,100.0,65.7,82.47,RU,1586742808.0,99.0,35.08,7.96
margate,78.0,51.38,1.39,GB,1586742808.0,76.0,50.0,16.11
mamlyutka,0.0,54.94,68.54,KZ,1586742808.0,72.0,44.82,8.61
maragogi,28.0,-9.01,-35.22,BR,1586742808.0,82.0,78.46,7.23
bandarbeyla,14.0,9.49,50.81,SO,1586742808.0,69.0,80.13,4.34
rio gallegos,54.0,-51.62,-69.22,AR,1586742808.0,71.0,50.0,14.99
vila,75.0,42.03,-8.16,PT,1586742809.0,93.0,53.01,3.36
kankan,91.0,10.39,-9.31,GN,1586742809.0,54.0,81.73,4.5
salalah,40.0,17.02,54.09,OM,1586742538.0,74.0,80.6,8.05
qunduz,64.0,36.73,68.86,AF,1586742809.0,68.0,64.27,7.67
cayenne,90.0,4.93,-52.33,GF,1586742809.0,78.0,78.8,1.12
ulaangom,100.0,49.98,92.07,MN,1586742809.0,69.0,31.71,1.66
mestia,47.0,43.05,42.73,GE,1586742809.0,53.0,20.32,1.59
araouane,66.0,18.9,-3.53,ML,1586742810.0,25.0,86.54,0.96
poso,3.0,-1.4,120.75,ID,1586742810.0,44.0,90.0,3.0
praia da vitoria,75.0,38.73,-27.07,PT,1586742810.0,77.0,60.8,12.97
fortuna,1.0,40.6,-124.16,US,1586742810.0,71.0,57.0,11.41
ciudad del maiz,86.0,22.4,-99.6,MX,1586742810.0,1.0,88.0,1.99
hambantota,55.0,6.12,81.12,LK,1586742810.0,77.0,82.45,7.02
maceio,75.0,-9.67,-35.74,BR,1586742810.0,82.0,78.67,8.68
semikarakorsk,0.0,47.52,40.81,RU,1586742811.0,37.0,35.6,4.47
beloha,0.0,-25.17,45.05,MG,1586742811.0,67.0,72.19,6.06
torbay,20.0,47.67,-52.73,CA,1586742811.0,93.0,36.0,10.29
strezhevoy,88.0,60.73,77.59,RU,1586742811.0,64.0,37.4,6.71
penzance,73.0,50.12,-5.54,GB,1586742811.0,81.0,52.0,16.11
brownsville,1.0,25.9,-97.5,US,1586742619.0,39.0,87.8,9.17
alexandria,2.0,31.22,29.96,EG,1586742811.0,66.0,56.75,1.77
katsuura,90.0,35.13,140.3,JP,1586742812.0,100.0,55.4,14.99
pangkalanbuun,93.0,-2.68,111.62,ID,1586742812.0,79.0,84.65,3.51
bela,0.0,25.93,81.98,IN,1586742812.0,14.0,91.9,6.11
byron bay,0.0,-28.65,153.62,AU,1586742520.0,53.0,75.2,6.93
russell,75.0,32.35,-85.2,US,1586742812.0,65.0,80.6,18.34
meulaboh,20.0,4.14,96.13,ID,1586742812.0,67.0,86.0,2.3
rio verde de mato grosso,0.0,-18.92,-54.84,BR,1586742812.0,72.0,73.02,3.87
iqaluit,90.0,63.75,-68.51,CA,1586742667.0,78.0,17.6,19.46
eyl,60.0,7.98,49.82,SO,1586742812.0,73.0,81.86,9.4
bureya,0.0,49.81,129.81,RU,1586742813.0,31.0,61.23,7.72
dongsheng,82.0,39.82,109.98,CN,1586742813.0,17.0,54.79,10.09
orlik,93.0,52.52,99.83,RU,1586742813.0,51.0,31.26,2.62
hokitika,100.0,-42.72,170.97,NZ,1586742813.0,68.0,50.61,24.36
san pedro,40.0,14.35,121.02,PH,1586742813.0,62.0,89.01,4.7
abu dhabi,91.0,24.47,54.37,AE,1586742813.0,28.0,86.0,4.7
pochutla,75.0,15.74,-96.47,MX,1586742813.0,83.0,80.01,6.35
babu,62.0,24.42,111.52,CN,1586742813.0,42.0,67.62,1.57
nanchang,0.0,28.68,115.88,CN,1586742814.0,42.0,65.46,5.7
hofn,88.0,64.25,-15.21,IS,1586742814.0,78.0,37.35,17.69
kabinda,100.0,-6.13,24.48,CD,1586742814.0,78.0,67.86,5.35
newport,90.0,51.59,-3.0,GB,1586742599.0,76.0,51.8,24.16
willowmore,0.0,-33.29,23.49,ZA,1586742814.0,67.0,48.7,4.07
elesbao veloso,100.0,-6.2,-42.14,BR,1586742814.0,91.0,73.33,5.88
biak,40.0,-0.91,122.88,ID,1586742814.0,63.0,84.07,1.32
deming,1.0,32.27,-107.76,US,1586742814.0,34.0,64.4,21.92
vertientes,0.0,21.26,-78.15,CU,1586742815.0,80.0,75.69,9.6
noumea,20.0,-22.28,166.46,NC,1586742815.0,66.0,84.2,11.41
bonfim,32.0,3.08,-59.95,BR,1586742815.0,57.0,82.09,9.53
nampula,14.0,-15.12,39.27,MZ,1586742815.0,88.0,65.48,1.25
mirabad,28.0,30.44,61.84,AF,1586742815.0,37.0,74.82,4.92
mogadishu,98.0,2.04,45.34,SO,1586742762.0,74.0,82.98,9.08
independencia,100.0,-5.4,-40.31,BR,1586742815.0,87.0,72.23,1.39
marystown,0.0,47.17,-55.15,CA,1586742544.0,94.0,32.0,11.72
king city,90.0,36.21,-121.13,US,1586742816.0,93.0,54.0,9.17
tibati,52.0,6.47,12.63,CM,1586742816.0,56.0,68.41,3.04
bengkulu,36.0,-3.8,102.27,ID,1586742816.0,58.0,87.44,1.28
lagos,20.0,6.58,3.75,NG,1586742816.0,88.0,82.4,7.72
sosua,13.0,19.77,-70.52,DO,1586742816.0,88.0,79.0,12.37
rumoi,8.0,43.93,141.64,JP,1586742817.0,63.0,42.44,9.1
loreto,50.0,22.27,-101.97,MX,1586742817.0,11.0,66.02,11.63
luganville,20.0,-15.53,167.17,VU,1586742817.0,70.0,86.0,5.82
sakakah,2.0,29.97,40.21,SA,1586742817.0,25.0,60.8,4.7
mokhsogollokh,1.0,61.47,128.92,RU,1586742817.0,70.0,36.79,9.33
guasdualito,43.0,7.24,-70.73,VE,1586742817.0,50.0,80.73,1.25
santa marta,2.0,11.24,-74.2,CO,1586742818.0,84.0,82.0,18.37
hay river,40.0,60.82,-115.8,CA,1586742818.0,61.0,14.0,10.29
santarem,40.0,-2.44,-54.71,BR,1586742818.0,94.0,78.8,3.36
crib point,71.0,-38.35,145.2,AU,1586742818.0,72.0,64.0,5.66
tynda,0.0,55.17,124.72,RU,1586742818.0,58.0,36.97,11.03
nizhniy baskunchak,0.0,48.22,46.83,RU,1586742818.0,76.0,36.3,17.76
ayan,16.0,56.45,138.17,RU,1586742818.0,74.0,37.15,9.35
champaign,90.0,40.13,-88.2,US,1586742818.0,87.0,57.2,6.93
elko,1.0,41.0,-115.5,US,1586742818.0,13.0,50.0,16.11
nizhniy kuranakh,100.0,58.84,125.49,RU,1586742819.0,70.0,35.73,10.51
sao gabriel da cachoeira,12.0,-0.13,-67.09,BR,1586742819.0,95.0,73.81,1.7
isabela,40.0,6.71,121.97,PH,1586742819.0,70.0,84.2,4.7
marquette,90.0,46.53,-87.63,US,1586742819.0,100.0,32.0,18.34
aksarka,100.0,66.56,67.8,RU,1586742819.0,97.0,20.53,10.83
kapit,85.0,2.02,112.93,MY,1586742819.0,56.0,90.75,1.88
ust-nera,94.0,64.57,143.2,RU,1586742819.0,79.0,29.34,3.36
shepetivka,0.0,50.19,27.06,UA,1586742820.0,68.0,42.39,9.08
saint-augustin,0.0,51.23,-58.65,CA,1586742820.0,95.0,26.76,9.8
krivosheino,76.0,57.34,83.93,RU,1586742820.0,75.0,39.07,7.0
broken hill,0.0,-31.95,141.43,AU,1586742820.0,36.0,64.4,5.82
dakar,2.0,14.69,-17.44,SN,1586742816.0,94.0,71.6,4.7
dogondoutchi,22.0,13.64,4.03,NE,1586742820.0,13.0,83.52,11.81
talnakh,100.0,69.49,88.4,RU,1586742821.0,62.0,21.2,4.47
rawson,34.0,-43.3,-65.1,AR,1586742821.0,44.0,57.45,9.98
port keats,53.0,-14.25,129.55,AU,1586742821.0,60.0,87.87,3.38
natal,20.0,-5.79,-35.21,BR,1586742821.0,78.0,82.4,5.82
octeville,18.0,49.63,-1.64,FR,1586742821.0,71.0,57.2,8.05
lanxi,0.0,29.22,119.48,CN,1586742821.0,37.0,62.6,5.14
pidvynohradiv,100.0,48.14,22.97,UA,1586742821.0,74.0,46.99,4.7
flinders,99.0,-34.58,150.86,AU,1586742821.0,45.0,69.01,7.43
senador jose porfirio,99.0,-2.59,-51.95,BR,1586742822.0,95.0,73.96,0.85
athabasca,81.0,54.72,-113.29,CA,1586742521.0,87.0,16.18,4.21
ilhabela,63.0,-23.78,-45.36,BR,1586742822.0,70.0,71.8,6.51
salinopolis,100.0,-0.61,-47.36,BR,1586742822.0,84.0,80.55,12.48
karmaskaly,14.0,54.37,56.18,RU,1586742822.0,100.0,30.2,2.24
kaitangata,80.0,-46.28,169.85,NZ,1586742822.0,73.0,46.56,18.05
san quintin,5.0,30.48,-115.95,MX,1586742822.0,78.0,59.27,11.25
asau,3.0,46.43,26.4,RO,1586742823.0,56.0,44.01,11.41
bintulu,75.0,3.17,113.03,MY,1586742823.0,83.0,84.2,3.36
pontianak,20.0,-0.03,109.33,ID,1586742540.0,88.0,80.6,3.36
bullhead city,90.0,35.15,-114.57,US,1586742600.0,82.0,77.0,25.28
zhicheng,100.0,30.3,111.5,CN,1586742823.0,39.0,69.17,1.48
pak thong chai,40.0,14.72,102.03,TH,1586742823.0,88.0,82.0,9.17
flin flon,97.0,54.77,-101.86,CA,1586742823.0,92.0,7.93,5.79
sisimiut,90.0,66.94,-53.67,GL,1586742823.0,95.0,31.66,8.12
sitka,90.0,57.05,-135.33,US,1586742823.0,65.0,48.2,6.93
magaria,53.0,13.0,8.91,NE,1586742824.0,16.0,76.68,7.9
itaituba,100.0,-4.28,-55.98,BR,1586742824.0,95.0,75.18,2.26
newton,100.0,42.34,-71.21,US,1586742787.0,76.0,52.0,18.34
sao felipe,100.0,-14.82,-41.38,BR,1586742824.0,78.0,71.8,6.15
ghanzi,37.0,-21.57,21.78,BW,1586742824.0,32.0,70.92,4.7
balabac,82.0,7.99,117.06,PH,1586742824.0,62.0,86.77,10.22
havoysund,90.0,71.0,24.66,NO,1586742824.0,86.0,28.4,17.22
davila,75.0,18.47,120.58,PH,1586742825.0,61.0,82.4,10.29
matay,0.0,28.42,30.78,EG,1586742825.0,47.0,60.12,8.93
quang ngai,100.0,15.12,108.8,VN,1586742825.0,86.0,73.98,12.44
half moon bay,90.0,37.46,-122.43,US,1586742673.0,87.0,64.99,6.93
qaqortoq,93.0,60.72,-46.03,GL,1586742825.0,69.0,37.4,5.82
tashigang,0.0,27.33,91.55,BT,1586742825.0,18.0,77.32,2.91
novonikolayevskiy,6.0,50.97,42.36,RU,1586742825.0,72.0,30.0,6.55
pitimbu,20.0,-7.47,-34.81,BR,1586742825.0,88.0,78.8,4.7
zalantun,8.0,48.0,122.72,CN,1586742826.0,17.0,69.1,7.85
kendari,17.0,-3.94,122.5,ID,1586742826.0,77.0,84.25,3.67
eureka,1.0,40.8,-124.16,US,1586742826.0,66.0,57.0,16.11
najran,65.0,17.49,44.13,SA,1586742826.0,53.0,75.2,1.97
fort nelson,20.0,58.81,-122.7,CA,1586742826.0,22.0,46.4,3.36
bambous virieux,40.0,-20.34,57.76,MU,1586742826.0,83.0,77.0,12.75
khani,0.0,41.96,42.96,GE,1586742826.0,100.0,35.6,5.82
jining,0.0,35.41,116.58,CN,1586742826.0,30.0,66.11,7.4
hvide sande,0.0,56.0,8.13,DK,1586742827.0,64.0,39.99,24.16
sibolga,62.0,1.74,98.78,ID,1586742827.0,57.0,88.77,1.72
soe,74.0,-9.86,124.28,ID,1586742827.0,68.0,76.41,3.11
midland,1.0,32.0,-102.08,US,1586742640.0,31.0,62.6,18.34
ovre ardal,98.0,61.32,7.8,NO,1586742827.0,85.0,16.9,5.06
poum,65.0,-20.23,164.02,NC,1586742827.0,75.0,79.39,10.6
kirksville,90.0,40.19,-92.58,US,1586742827.0,79.0,37.4,14.99
plettenberg bay,6.0,-34.05,23.37,ZA,1586742828.0,73.0,57.51,4.05
pyapon,2.0,16.28,95.68,MM,1586742828.0,39.0,90.59,7.23
alofi,11.0,-19.06,-169.92,NU,1586742828.0,70.0,84.2,13.87
yushan,0.0,31.38,120.95,CN,1586742819.0,51.0,62.01,13.42
puerto colombia,0.0,10.99,-74.95,CO,1586742828.0,78.0,82.4,14.99
pecos,1.0,31.42,-103.49,US,1586742828.0,19.0,77.0,14.99
puerto leguizamo,97.0,-0.19,-74.78,CO,1586742828.0,91.0,72.12,1.34
mikkeli,90.0,61.69,27.27,FI,1586742828.0,100.0,41.0,6.93
teeli,57.0,51.03,90.23,RU,1586742829.0,40.0,44.22,1.97
champerico,85.0,14.3,-91.92,GT,1586742829.0,73.0,83.37,5.06
rosarito,90.0,32.33,-117.03,MX,1586742829.0,77.0,62.6,6.93
bend,1.0,44.06,-121.32,US,1586742725.0,17.0,55.4,5.82
